{
  "updated": "2026-06-19T02:27:32.315593+00:00",
  "listings": [
    {
      "source": "Walls Property Management",
      "beds": 2,
      "neighborhood": "Ballard",
      "address": "1819 NW Central Place 2-202, Seattle, WA 98107",
      "rent": "$2,695",
      "pets": "allowed",
      "url": "https://wallspropmgmt.appfolio.com/listings/",
      "first_seen": "2026-06-19T02:21:52.232655+00:00",
      "lat": 47.6668248,
      "lng": -122.3805033
    },
    {
      "source": "Walls Property Management",
      "beds": 3,
      "neighborhood": "Fremont",
      "address": "4250 Fremont Ave N - C, Seattle, WA 98103",
      "rent": "$4,095",
      "pets": "unknown",
      "url": "https://wallspropmgmt.appfolio.com/listings/",
      "first_seen": "2026-06-19T00:24:19.815024+00:00",
      "lat": 47.6587313,
      "lng": -122.349879
    },
    {
      "source": "Walls Property Management",
      "beds": 3,
      "neighborhood": "Green Lake",
      "address": "6840 Oswego Place NE - 306, Seattle, WA 98115",
      "rent": "$3,695",
      "pets": "allowed",
      "url": "https://wallspropmgmt.appfolio.com/listings/",
      "first_seen": "2026-06-18T22:29:53.905307+00:00",
      "lat": 47.6789273,
      "lng": -122.3230642
    },
    {
      "source": "Walls Property Management",
      "beds": 3,
      "neighborhood": "Green Lake",
      "address": "6840 Oswego Place NE - 303, Seattle, WA 98115",
      "rent": "$3,395",
      "pets": "allowed",
      "url": "https://wallspropmgmt.appfolio.com/listings/",
      "first_seen": "2026-06-18T22:29:53.905307+00:00",
      "lat": 47.6789273,
      "lng": -122.3230642
    },
    {
      "source": "Walls Property Management",
      "beds": 2,
      "neighborhood": "Ballard",
      "address": "2237 NW 59th - 7, Seattle, WA 98107",
      "rent": "$2,275",
      "pets": "allowed",
      "url": "https://wallspropmgmt.appfolio.com/listings/",
      "first_seen": "2026-06-18T22:29:53.905307+00:00",
      "lat": 47.6714379,
      "lng": -122.3864192
    },
    {
      "source": "Walls Property Management",
      "beds": 3,
      "neighborhood": "Ballard",
      "address": "7522 24th Ave NW - 3, Seattle, WA 98117",
      "rent": "$3,395",
      "pets": "allowed",
      "url": "https://wallspropmgmt.appfolio.com/listings/",
      "first_seen": "2026-06-18T22:29:53.905307+00:00",
      "lat": 47.6838608,
      "lng": -122.3872467
    },
    {
      "source": "Walls Property Management",
      "beds": 2,
      "neighborhood": "Queen Anne",
      "address": "655 Crockett St , #A308, Seattle, WA 98109",
      "rent": "$3,295",
      "pets": "allowed",
      "url": "https://wallspropmgmt.appfolio.com/listings/",
      "first_seen": "2026-06-18T22:29:53.905307+00:00",
      "lat": 47.6370915,
      "lng": -122.3437999
    },
    {
      "source": "Walls Property Management",
      "beds": 2,
      "neighborhood": "Phinney Ridge",
      "address": "8524 Phinney Avenue N  - 7, Seattle, WA 98103",
      "rent": "$1,975",
      "pets": "allowed",
      "url": "https://wallspropmgmt.appfolio.com/listings/",
      "first_seen": "2026-06-19T02:27:32.315593+00:00",
      "lat": 47.6914134,
      "lng": -122.3536136
    },
    {
      "source": "Walls Property Management",
      "beds": 3,
      "neighborhood": "Ballard",
      "address": "7522 24th Ave NW - 4, Seattle, WA 98117",
      "rent": "$3,395",
      "pets": "allowed",
      "url": "https://wallspropmgmt.appfolio.com/listings/",
      "first_seen": "2026-06-18T22:29:53.905307+00:00",
      "lat": 47.6838608,
      "lng": -122.3872467
    },
    {
      "source": "Walls Property Management",
      "beds": 3,
      "neighborhood": "Ballard",
      "address": "5820 26th Ave NW, Seattle, WA 98107",
      "rent": "$2,563",
      "pets": "allowed",
      "url": "https://wallspropmgmt.appfolio.com/listings/",
      "first_seen": "2026-06-19T02:21:52.232655+00:00",
      "lat": 47.6711414,
      "lng": -122.3899968
    },
    {
      "source": "Walls Property Management",
      "beds": 3,
      "neighborhood": "Phinney Ridge",
      "address": "8732 Phinney Avenue N - 201, Seattle, WA 98103",
      "rent": "$2,595",
      "pets": "allowed",
      "url": "https://wallspropmgmt.appfolio.com/listings/",
      "first_seen": "2026-06-18T22:29:53.905307+00:00",
      "lat": 47.6933816,
      "lng": -122.3536247
    },
    {
      "source": "Walls Property Management",
      "beds": 2,
      "neighborhood": "Wallingford",
      "address": "4314 Winslow Pl N Apt 203, Seattle, WA 98103-7355",
      "rent": "$2,345",
      "pets": "unknown",
      "url": "https://wallspropmgmt.appfolio.com/listings/",
      "first_seen": "2026-06-18T22:29:53.905307+00:00",
      "lat": 47.6600056,
      "lng": -122.3463578
    },
    {
      "source": "Walls Property Management",
      "beds": 3,
      "neighborhood": "Ballard",
      "address": "2237 NW 59th - 2, Seattle, WA 98107",
      "rent": "$2,895",
      "pets": "allowed",
      "url": "https://wallspropmgmt.appfolio.com/listings/",
      "first_seen": "2026-06-18T22:29:53.905307+00:00",
      "lat": 47.6714379,
      "lng": -122.3864192
    },
    {
      "source": "Redside Partners",
      "beds": 2,
      "neighborhood": "Queen Anne",
      "address": "1700  Taylor Ave N #201, Seattle, WA 98109",
      "rent": "$2,195",
      "pets": "allowed",
      "url": "https://redside.appfolio.com/listings/",
      "first_seen": "2026-06-18T22:29:53.905307+00:00",
      "lat": 47.634352,
      "lng": -122.3462097
    },
    {
      "source": "Redside Partners",
      "beds": 2,
      "neighborhood": "Queen Anne",
      "address": "1212 5th Ave. N. - 102, Seattle, WA 98109",
      "rent": "$2,300",
      "pets": "allowed",
      "url": "https://redside.appfolio.com/listings/",
      "first_seen": "2026-06-18T22:29:53.905307+00:00",
      "lat": 47.6301888,
      "lng": -122.3472664
    },
    {
      "source": "Redside Partners",
      "beds": 2,
      "neighborhood": "Queen Anne",
      "address": "1212 5th Ave. N. - 2, Seattle, WA 98109",
      "rent": "$2,200",
      "pets": "allowed",
      "url": "https://redside.appfolio.com/listings/",
      "first_seen": "2026-06-18T22:29:53.905307+00:00",
      "lat": 47.6301888,
      "lng": -122.3472664
    },
    {
      "source": "Redside Partners",
      "beds": 2,
      "neighborhood": "Queen Anne",
      "address": "911 1st Ave W #201, Seattle, WA 98119",
      "rent": "$2,200",
      "pets": "allowed",
      "url": "https://redside.appfolio.com/listings/",
      "first_seen": "2026-06-18T22:29:53.905307+00:00",
      "lat": 47.62716,
      "lng": -122.3583127
    },
    {
      "source": "Redside Partners",
      "beds": 2,
      "neighborhood": "Ballard",
      "address": "9514 8th Ave NW , Unit 103, Seattle, WA 98117",
      "rent": "$2,250",
      "pets": "unknown",
      "url": "https://redside.appfolio.com/listings/",
      "first_seen": "2026-06-18T22:29:53.905307+00:00",
      "lat": 47.6983824,
      "lng": -122.3656665
    },
    {
      "source": "Cornell & Associates",
      "beds": 2,
      "neighborhood": "Ballard",
      "address": "1412 NW 61ST ST #8, Seattle, WA 98107",
      "rent": "$2,295",
      "pets": "allowed",
      "url": "https://cornellandassociates.appfolio.com/listings/",
      "first_seen": "2026-06-18T22:29:53.905307+00:00",
      "lat": 47.6733241,
      "lng": -122.3742895
    },
    {
      "source": "North Pacific Property Management",
      "beds": 2,
      "neighborhood": "Queen Anne",
      "address": "2114 5th Ave W, Seattle, WA 98119",
      "rent": "$2,995",
      "pets": "allowed",
      "url": "https://northpacificpm.appfolio.com/listings/",
      "first_seen": "2026-06-18T22:29:53.905307+00:00",
      "lat": 47.6382231,
      "lng": -122.3633934
    },
    {
      "source": "North Pacific Property Management",
      "beds": 2,
      "neighborhood": "Queen Anne",
      "address": "1965 12th Avenue West, Unit 302, Seattle, WA 98119",
      "rent": "$3,495",
      "pets": "none",
      "url": "https://northpacificpm.appfolio.com/listings/",
      "first_seen": "2026-06-18T22:29:53.905307+00:00",
      "lat": 47.6380624,
      "lng": -122.3731097
    },
    {
      "source": "North Pacific Property Management",
      "beds": 3,
      "neighborhood": "Ballard",
      "address": "1741 NW 58th St, Unit A, Seattle, WA 98107",
      "rent": "$3,900",
      "pets": "none",
      "url": "https://northpacificpm.appfolio.com/listings/",
      "first_seen": "2026-06-18T22:29:53.905307+00:00",
      "lat": 47.670633,
      "lng": -122.3807919
    },
    {
      "source": "North Pacific Property Management",
      "beds": 2,
      "neighborhood": "Queen Anne",
      "address": "822 6th Ave N  - Unit C, Unit C, Seattle, WA 98109",
      "rent": "$2,800",
      "pets": "unknown",
      "url": "https://northpacificpm.appfolio.com/listings/",
      "first_seen": "2026-06-18T22:29:53.905307+00:00",
      "lat": 47.6374,
      "lng": -122.3572
    },
    {
      "source": "Ballard Realty",
      "beds": 2,
      "neighborhood": "Queen Anne",
      "address": "2244 13th Ave W #215, Seattle, WA 98119",
      "rent": "$2,400",
      "pets": "allowed",
      "url": "https://ballardpm.appfolio.com/listings/",
      "first_seen": "2026-06-18T22:29:53.905307+00:00",
      "lat": 47.6400535,
      "lng": -122.3733068
    },
    {
      "source": "Ballard Realty",
      "beds": 3,
      "neighborhood": "Ballard",
      "address": "6251 8th Ave NW, Seattle, WA 98107",
      "rent": "$3,475",
      "pets": "allowed",
      "url": "https://ballardpm.appfolio.com/listings/",
      "first_seen": "2026-06-18T22:29:53.905307+00:00",
      "lat": 47.6744253,
      "lng": -122.3663623
    },
    {
      "source": "Ballard Realty",
      "beds": 3,
      "neighborhood": "Ballard",
      "address": "6116 22nd Ave NW #3, Seattle, WA 98107",
      "rent": "$3,695",
      "pets": "none",
      "url": "https://ballardpm.appfolio.com/listings/",
      "first_seen": "2026-06-19T00:16:56.335337+00:00",
      "lat": 47.673675,
      "lng": -122.384407
    },
    {
      "source": "Ballard Realty",
      "beds": 3,
      "neighborhood": "Fremont",
      "address": "469 N 36th St #B , Seattle, WA 98103",
      "rent": "$2,200",
      "pets": "allowed",
      "url": "https://ballardpm.appfolio.com/listings/",
      "first_seen": "2026-06-18T22:29:53.905307+00:00",
      "lat": 47.6516655,
      "lng": -122.3526101
    },
    {
      "source": "SJA Property Management",
      "beds": 3,
      "neighborhood": "Ballard",
      "address": "824 NW 63rd St , Unit A, Seattle, WA 98107",
      "rent": "$3,795",
      "pets": "allowed",
      "url": "https://sja.appfolio.com/listings/",
      "first_seen": "2026-06-18T22:29:53.905307+00:00",
      "lat": 47.6747108,
      "lng": -122.367099
    },
    {
      "source": "SJA Property Management",
      "beds": 3,
      "neighborhood": "Ballard",
      "address": "2645 B NW 57th St, Seattle, WA 98107",
      "rent": "$3,495",
      "pets": "none",
      "url": "https://sja.appfolio.com/listings/",
      "first_seen": "2026-06-18T22:29:53.905307+00:00",
      "lat": 47.6701748,
      "lng": -122.3748326
    }
  ]
}