{
  "updated": "2026-06-19T17:34:34.759599+00:00",
  "listings": [
    {
      "source": "Walls Property Management",
      "beds": 3,
      "neighborhood": "Fremont",
      "address": "4250 Fremont Ave N - C, Seattle, WA 98103",
      "rent": "$4,095",
      "pets": "unknown",
      "url": "https://wallspropertymanagement.com/vacancies",
      "first_seen": "2026-06-19T14:16:44.049254+00:00",
      "lat": 47.6587313,
      "lng": -122.349879
    },
    {
      "source": "Walls Property Management",
      "beds": 3,
      "neighborhood": "Green Lake",
      "address": "6840 Oswego Place NE - 306, Seattle, WA 98115",
      "rent": "$3,695",
      "pets": "allowed",
      "url": "https://wallspropertymanagement.com/vacancies",
      "first_seen": "2026-06-19T14:16:44.049254+00:00",
      "lat": 47.6789273,
      "lng": -122.3230642
    },
    {
      "source": "Walls Property Management",
      "beds": 3,
      "neighborhood": "Green Lake",
      "address": "6840 Oswego Place NE - 303, Seattle, WA 98115",
      "rent": "$3,395",
      "pets": "allowed",
      "url": "https://wallspropertymanagement.com/vacancies",
      "first_seen": "2026-06-19T14:16:44.049254+00:00",
      "lat": 47.6789273,
      "lng": -122.3230642
    },
    {
      "source": "Walls Property Management",
      "beds": 3,
      "neighborhood": "Ballard",
      "address": "7522 24th Ave NW - 3, Seattle, WA 98117",
      "rent": "$3,395",
      "pets": "allowed",
      "url": "https://wallspropertymanagement.com/vacancies",
      "first_seen": "2026-06-19T14:16:44.049254+00:00",
      "lat": 47.6838608,
      "lng": -122.3872467
    },
    {
      "source": "Walls Property Management",
      "beds": 2,
      "neighborhood": "Queen Anne",
      "address": "655 Crockett St , #A308, Seattle, WA 98109",
      "rent": "$3,295",
      "pets": "allowed",
      "url": "https://wallspropertymanagement.com/vacancies",
      "first_seen": "2026-06-19T14:16:44.049254+00:00",
      "lat": 47.6370915,
      "lng": -122.3437999
    },
    {
      "source": "Walls Property Management",
      "beds": 3,
      "neighborhood": "Ballard",
      "address": "7522 24th Ave NW - 4, Seattle, WA 98117",
      "rent": "$3,395",
      "pets": "allowed",
      "url": "https://wallspropertymanagement.com/vacancies",
      "first_seen": "2026-06-19T14:16:44.049254+00:00",
      "lat": 47.6838608,
      "lng": -122.3872467
    },
    {
      "source": "North Pacific Property Management",
      "beds": 2,
      "neighborhood": "Queen Anne",
      "address": "1965 12th Avenue West, Unit 302, Seattle, WA 98119",
      "rent": "$3,495",
      "pets": "none",
      "url": "https://northpacificpm.appfolio.com/listings/detail/3eb47b88-f0fd-4e5e-b3c1-72effc522d2d",
      "first_seen": "2026-06-18T22:29:53.905307+00:00",
      "lat": 47.6380624,
      "lng": -122.3731097
    },
    {
      "source": "North Pacific Property Management",
      "beds": 3,
      "neighborhood": "Ballard",
      "address": "1741 NW 58th St, Unit A, Seattle, WA 98107",
      "rent": "$3,900",
      "pets": "none",
      "url": "https://northpacificpm.appfolio.com/listings/detail/ebb810c9-524a-49d6-bf5f-12482f742ed5",
      "first_seen": "2026-06-18T22:29:53.905307+00:00",
      "lat": 47.670633,
      "lng": -122.3807919
    },
    {
      "source": "Ballard Realty",
      "beds": 3,
      "neighborhood": "Ballard",
      "address": "6251 8th Ave NW, Seattle, WA 98107",
      "rent": "$3,475",
      "pets": "allowed",
      "url": "https://ballardpm.appfolio.com/listings/detail/977b0d9f-9f4b-42c6-9fa4-ee09d64c2843",
      "first_seen": "2026-06-18T22:29:53.905307+00:00",
      "lat": 47.6744253,
      "lng": -122.3663623
    },
    {
      "source": "Ballard Realty",
      "beds": 3,
      "neighborhood": "Ballard",
      "address": "6116 22nd Ave NW #3, Seattle, WA 98107",
      "rent": "$3,695",
      "pets": "none",
      "url": "https://ballardpm.appfolio.com/listings/detail/1cf5ff05-b53b-420e-9421-1bc7061284b6",
      "first_seen": "2026-06-19T00:16:56.335337+00:00",
      "lat": 47.673675,
      "lng": -122.384407
    },
    {
      "source": "SJA Property Management",
      "beds": 2,
      "neighborhood": "Wallingford",
      "address": "346 NE 55th Street, Unit C , Seattle, WA 98105",
      "rent": "$3,950",
      "pets": "allowed",
      "url": "https://sja.appfolio.com/listings/detail/fba88a23-7d02-459e-ac65-e9439ae1f231",
      "first_seen": "2026-06-19T03:26:55.815872+00:00",
      "lat": 47.6688445,
      "lng": -122.3235324
    },
    {
      "source": "SJA Property Management",
      "beds": 3,
      "neighborhood": "Ballard",
      "address": "2645 B NW 57th St, Seattle, WA 98107",
      "rent": "$3,495",
      "pets": "none",
      "url": "https://sja.appfolio.com/listings/detail/562c4f0d-1049-4c79-b31f-1e5e4d300a0b",
      "first_seen": "2026-06-18T22:29:53.905307+00:00",
      "lat": 47.6704334,
      "lng": -122.40355
    },
    {
      "source": "Avenue One Residential",
      "beds": 3,
      "neighborhood": "Queen Anne",
      "address": "2567-2569 13th Ave W - 2567.5, Seattle, WA 98119",
      "rent": "$4,495",
      "pets": "allowed",
      "url": "https://avenueone.appfolio.com/listings/detail/ba2739a1-c088-4f1b-91b1-9835409037ea",
      "first_seen": "2026-06-19T05:20:05.305996+00:00",
      "lat": 47.6374,
      "lng": -122.3572
    },
    {
      "source": "Avenue One Residential",
      "beds": 3,
      "neighborhood": "Queen Anne",
      "address": "2551 1\u20442 13th Ave W, Seattle, WA 98119",
      "rent": "$3,395",
      "pets": "allowed",
      "url": "https://avenueone.appfolio.com/listings/detail/145e0cb9-df8e-4659-8b15-12c8ea6290cb",
      "first_seen": "2026-06-19T03:26:55.815872+00:00",
      "lat": 47.6422247,
      "lng": -122.3739982
    },
    {
      "source": "Avenue One Residential",
      "beds": 3,
      "neighborhood": "Fremont",
      "address": "4304 Whitman Ave. N. , Seattle, WA 98103",
      "rent": "$4,195",
      "pets": "allowed",
      "url": "https://avenueone.appfolio.com/listings/detail/5a86f3e7-b909-4a40-a1be-0b40659d3bb2",
      "first_seen": "2026-06-19T03:26:55.815872+00:00",
      "lat": 47.6597637,
      "lng": -122.345439
    }
  ]
}