{
  "updated": "2026-06-19T02:21:52.232655+00:00",
  "listings": [
    {
      "source": "Walls Property Management",
      "beds": 3,
      "neighborhood": "Ballard",
      "address": "7522 24th Ave NW - 2, Seattle, WA 98117",
      "rent": "$2,895",
      "pets": "allowed",
      "url": "https://wallspropmgmt.appfolio.com/listings/detail/7b0e82f3-746f-4344-b2ff-fb3e6b300105",
      "first_seen": "2026-06-18T22:29:53.905307+00:00",
      "lat": 47.6838608,
      "lng": -122.3872467
    },
    {
      "source": "Walls Property Management",
      "beds": 2,
      "neighborhood": "Ballard",
      "address": "1819 NW Central Place 2-202, Seattle, WA 98107",
      "rent": "$2,695",
      "pets": "allowed",
      "url": "https://wallspropmgmt.appfolio.com/listings/detail/1982b4f3-0356-4eb4-a168-72fe03d6c242",
      "first_seen": "2026-06-19T02:21:52.232655+00:00",
      "lat": 47.6668248,
      "lng": -122.3805033
    },
    {
      "source": "Walls Property Management",
      "beds": 3,
      "neighborhood": "Fremont",
      "address": "4250 Fremont Ave N - C, Seattle, WA 98103",
      "rent": "$4,095",
      "pets": "unknown",
      "url": "https://wallspropmgmt.appfolio.com/listings/detail/43cfecce-a3fe-4887-8668-58da18a79a82",
      "first_seen": "2026-06-19T00:24:19.815024+00:00",
      "lat": 47.6587313,
      "lng": -122.349879
    },
    {
      "source": "Walls Property Management",
      "beds": 3,
      "neighborhood": "Green Lake",
      "address": "6840 Oswego Place NE - 306, Seattle, WA 98115",
      "rent": "$3,695",
      "pets": "allowed",
      "url": "https://wallspropmgmt.appfolio.com/listings/detail/5159f078-bbcf-4ec3-9da4-01248b13b4e3",
      "first_seen": "2026-06-18T22:29:53.905307+00:00",
      "lat": 47.6789273,
      "lng": -122.3230642
    },
    {
      "source": "Walls Property Management",
      "beds": 3,
      "neighborhood": "Green Lake",
      "address": "6840 Oswego Place NE - 303, Seattle, WA 98115",
      "rent": "$3,395",
      "pets": "allowed",
      "url": "https://wallspropmgmt.appfolio.com/listings/detail/852a34cc-1b36-4a7e-9d83-70243db9cc84",
      "first_seen": "2026-06-18T22:29:53.905307+00:00",
      "lat": 47.6789273,
      "lng": -122.3230642
    },
    {
      "source": "Walls Property Management",
      "beds": 2,
      "neighborhood": "Ballard",
      "address": "2237 NW 59th - 7, Seattle, WA 98107",
      "rent": "$2,275",
      "pets": "allowed",
      "url": "https://wallspropmgmt.appfolio.com/listings/detail/59b188f9-745f-4fb3-b056-4fa36a51cb1f",
      "first_seen": "2026-06-18T22:29:53.905307+00:00",
      "lat": 47.6714379,
      "lng": -122.3864192
    },
    {
      "source": "Walls Property Management",
      "beds": 3,
      "neighborhood": "Ballard",
      "address": "7522 24th Ave NW - 3, Seattle, WA 98117",
      "rent": "$3,395",
      "pets": "allowed",
      "url": "https://wallspropmgmt.appfolio.com/listings/detail/56ebe58c-730c-40d1-ab8b-a83b1e7d7d92",
      "first_seen": "2026-06-18T22:29:53.905307+00:00",
      "lat": 47.6838608,
      "lng": -122.3872467
    },
    {
      "source": "Walls Property Management",
      "beds": 2,
      "neighborhood": "Queen Anne",
      "address": "655 Crockett St , #A308, Seattle, WA 98109",
      "rent": "$3,295",
      "pets": "allowed",
      "url": "https://wallspropmgmt.appfolio.com/listings/detail/6f8b11b1-0110-4596-9859-01f56f394020",
      "first_seen": "2026-06-18T22:29:53.905307+00:00",
      "lat": 47.6370915,
      "lng": -122.3437999
    },
    {
      "source": "Walls Property Management",
      "beds": 2,
      "neighborhood": "Phinney Ridge",
      "address": "8524 Phinney Avenue N  - 7, Seattle, WA 98103",
      "rent": "$1,975",
      "pets": "allowed",
      "url": "https://wallspropmgmt.appfolio.com/listings/detail/10a1a0a4-e78b-4222-8e0d-e8cd4f5ba17f",
      "first_seen": "2026-06-19T02:21:52.232655+00:00",
      "lat": 47.6914134,
      "lng": -122.3536136
    },
    {
      "source": "Walls Property Management",
      "beds": 3,
      "neighborhood": "Ballard",
      "address": "7522 24th Ave NW - 4, Seattle, WA 98117",
      "rent": "$3,395",
      "pets": "allowed",
      "url": "https://wallspropmgmt.appfolio.com/listings/detail/b9d6a39d-7e54-4800-8420-aefc019669d9",
      "first_seen": "2026-06-18T22:29:53.905307+00:00",
      "lat": 47.6838608,
      "lng": -122.3872467
    },
    {
      "source": "Walls Property Management",
      "beds": 3,
      "neighborhood": "Ballard",
      "address": "5820 26th Ave NW, Seattle, WA 98107",
      "rent": "$2,563",
      "pets": "allowed",
      "url": "https://wallspropmgmt.appfolio.com/listings/detail/2388c4c2-a1e4-4835-8cef-20c463ea482e",
      "first_seen": "2026-06-19T02:21:52.232655+00:00",
      "lat": 47.6711414,
      "lng": -122.3899968
    },
    {
      "source": "Walls Property Management",
      "beds": 3,
      "neighborhood": "Phinney Ridge",
      "address": "8732 Phinney Avenue N - 201, Seattle, WA 98103",
      "rent": "$2,595",
      "pets": "allowed",
      "url": "https://wallspropmgmt.appfolio.com/listings/detail/5a0ae28a-f901-4b18-a676-9c2ce5f739b2",
      "first_seen": "2026-06-18T22:29:53.905307+00:00",
      "lat": 47.6933816,
      "lng": -122.3536247
    },
    {
      "source": "Walls Property Management",
      "beds": 2,
      "neighborhood": "Wallingford",
      "address": "4314 Winslow Pl N Apt 203, Seattle, WA 98103-7355",
      "rent": "$2,345",
      "pets": "unknown",
      "url": "https://wallspropmgmt.appfolio.com/listings/detail/e2fd447c-b104-442b-9019-59f51b15dd45",
      "first_seen": "2026-06-18T22:29:53.905307+00:00",
      "lat": 47.6600056,
      "lng": -122.3463578
    },
    {
      "source": "Walls Property Management",
      "beds": 3,
      "neighborhood": "Ballard",
      "address": "2237 NW 59th - 2, Seattle, WA 98107",
      "rent": "$2,895",
      "pets": "allowed",
      "url": "https://wallspropmgmt.appfolio.com/listings/detail/9232bcce-4930-4153-bf61-6d3c10daa531",
      "first_seen": "2026-06-18T22:29:53.905307+00:00",
      "lat": 47.6714379,
      "lng": -122.3864192
    },
    {
      "source": "Redside Partners",
      "beds": 2,
      "neighborhood": "Queen Anne",
      "address": "1700  Taylor Ave N #201, Seattle, WA 98109",
      "rent": "$2,195",
      "pets": "allowed",
      "url": "https://redside.appfolio.com/listings/detail/2bb44e30-9796-4cb1-8862-b1f8018b18ba",
      "first_seen": "2026-06-18T22:29:53.905307+00:00",
      "lat": 47.634352,
      "lng": -122.3462097
    },
    {
      "source": "Redside Partners",
      "beds": 2,
      "neighborhood": "Queen Anne",
      "address": "1212 5th Ave. N. - 102, Seattle, WA 98109",
      "rent": "$2,300",
      "pets": "allowed",
      "url": "https://redside.appfolio.com/listings/detail/29327453-926a-4381-aca6-48eb1a228d03",
      "first_seen": "2026-06-18T22:29:53.905307+00:00",
      "lat": 47.6301888,
      "lng": -122.3472664
    },
    {
      "source": "Redside Partners",
      "beds": 2,
      "neighborhood": "Queen Anne",
      "address": "1212 5th Ave. N. - 2, Seattle, WA 98109",
      "rent": "$2,200",
      "pets": "allowed",
      "url": "https://redside.appfolio.com/listings/detail/4d950435-656a-471c-8b55-3729d5c5c040",
      "first_seen": "2026-06-18T22:29:53.905307+00:00",
      "lat": 47.6301888,
      "lng": -122.3472664
    },
    {
      "source": "Redside Partners",
      "beds": 2,
      "neighborhood": "Queen Anne",
      "address": "911 1st Ave W #201, Seattle, WA 98119",
      "rent": "$2,200",
      "pets": "allowed",
      "url": "https://redside.appfolio.com/listings/detail/07e600bf-6b4e-4c69-99ce-49769fb73c80",
      "first_seen": "2026-06-18T22:29:53.905307+00:00",
      "lat": 47.62716,
      "lng": -122.3583127
    },
    {
      "source": "Redside Partners",
      "beds": 2,
      "neighborhood": "Ballard",
      "address": "9514 8th Ave NW , Unit 103, Seattle, WA 98117",
      "rent": "$2,250",
      "pets": "unknown",
      "url": "https://redside.appfolio.com/listings/detail/a2a9417d-2671-4d79-8950-1ba84a0bc968",
      "first_seen": "2026-06-18T22:29:53.905307+00:00",
      "lat": 47.6983824,
      "lng": -122.3656665
    },
    {
      "source": "Cornell & Associates",
      "beds": 2,
      "neighborhood": "Ballard",
      "address": "1412 NW 61ST ST #8, Seattle, WA 98107",
      "rent": "$2,295",
      "pets": "allowed",
      "url": "https://cornellandassociates.appfolio.com/listings/detail/fc4ce247-73de-4f70-ae4a-0c9e678bb3cc",
      "first_seen": "2026-06-18T22:29:53.905307+00:00",
      "lat": 47.6733241,
      "lng": -122.3742895
    },
    {
      "source": "North Pacific Property Management",
      "beds": 2,
      "neighborhood": "Queen Anne",
      "address": "2114 5th Ave W, Seattle, WA 98119",
      "rent": "$2,995",
      "pets": "allowed",
      "url": "https://northpacificpm.appfolio.com/listings/detail/7467c321-791f-4382-988b-0af68480847c",
      "first_seen": "2026-06-18T22:29:53.905307+00:00",
      "lat": 47.6382231,
      "lng": -122.3633934
    },
    {
      "source": "North Pacific Property Management",
      "beds": 2,
      "neighborhood": "Queen Anne",
      "address": "1965 12th Avenue West, Unit 302, Seattle, WA 98119",
      "rent": "$3,495",
      "pets": "none",
      "url": "https://northpacificpm.appfolio.com/listings/detail/3eb47b88-f0fd-4e5e-b3c1-72effc522d2d",
      "first_seen": "2026-06-18T22:29:53.905307+00:00",
      "lat": 47.6380624,
      "lng": -122.3731097
    },
    {
      "source": "North Pacific Property Management",
      "beds": 3,
      "neighborhood": "Ballard",
      "address": "1741 NW 58th St, Unit A, Seattle, WA 98107",
      "rent": "$3,900",
      "pets": "none",
      "url": "https://northpacificpm.appfolio.com/listings/detail/ebb810c9-524a-49d6-bf5f-12482f742ed5",
      "first_seen": "2026-06-18T22:29:53.905307+00:00",
      "lat": 47.6706332,
      "lng": -122.3807113
    },
    {
      "source": "North Pacific Property Management",
      "beds": 2,
      "neighborhood": "Queen Anne",
      "address": "822 6th Ave N  - Unit C, Unit C, Seattle, WA 98109",
      "rent": "$2,800",
      "pets": "unknown",
      "url": "https://northpacificpm.appfolio.com/listings/detail/798827ec-8c91-439f-8435-e02d4fa0815c",
      "first_seen": "2026-06-18T22:29:53.905307+00:00",
      "lat": 47.6374,
      "lng": -122.3572
    },
    {
      "source": "Ballard Realty",
      "beds": 2,
      "neighborhood": "Queen Anne",
      "address": "2244 13th Ave W #215, Seattle, WA 98119",
      "rent": "$2,400",
      "pets": "allowed",
      "url": "https://ballardpm.appfolio.com/listings/detail/f39aff76-ab5f-43cc-bfc6-87828838ec3b",
      "first_seen": "2026-06-18T22:29:53.905307+00:00",
      "lat": 47.6400535,
      "lng": -122.3733068
    },
    {
      "source": "Ballard Realty",
      "beds": 3,
      "neighborhood": "Ballard",
      "address": "6251 8th Ave NW, Seattle, WA 98107",
      "rent": "$3,475",
      "pets": "allowed",
      "url": "https://ballardpm.appfolio.com/listings/detail/977b0d9f-9f4b-42c6-9fa4-ee09d64c2843",
      "first_seen": "2026-06-18T22:29:53.905307+00:00",
      "lat": 47.6744253,
      "lng": -122.3663623
    },
    {
      "source": "Ballard Realty",
      "beds": 3,
      "neighborhood": "Ballard",
      "address": "6116 22nd Ave NW #3, Seattle, WA 98107",
      "rent": "$3,695",
      "pets": "none",
      "url": "https://ballardpm.appfolio.com/listings/detail/1cf5ff05-b53b-420e-9421-1bc7061284b6",
      "first_seen": "2026-06-19T00:16:56.335337+00:00",
      "lat": 47.673675,
      "lng": -122.384407
    },
    {
      "source": "Ballard Realty",
      "beds": 3,
      "neighborhood": "Fremont",
      "address": "469 N 36th St #B , Seattle, WA 98103",
      "rent": "$2,200",
      "pets": "allowed",
      "url": "https://ballardpm.appfolio.com/listings/detail/b8c5b1b8-3809-4210-bae5-71252d7b4e51",
      "first_seen": "2026-06-18T22:29:53.905307+00:00",
      "lat": 47.6516655,
      "lng": -122.3526101
    },
    {
      "source": "SJA Property Management",
      "beds": 3,
      "neighborhood": "Ballard",
      "address": "824 NW 63rd St , Unit A, Seattle, WA 98107",
      "rent": "$3,795",
      "pets": "allowed",
      "url": "https://sja.appfolio.com/listings/detail/f94658f1-eed9-4b71-a033-98ba7eb4b3c4",
      "first_seen": "2026-06-18T22:29:53.905307+00:00",
      "lat": 47.6747108,
      "lng": -122.367099
    },
    {
      "source": "SJA Property Management",
      "beds": 3,
      "neighborhood": "Ballard",
      "address": "2645 B NW 57th St, Seattle, WA 98107",
      "rent": "$3,495",
      "pets": "none",
      "url": "https://sja.appfolio.com/listings/detail/562c4f0d-1049-4c79-b31f-1e5e4d300a0b",
      "first_seen": "2026-06-18T22:29:53.905307+00:00",
      "lat": 47.6704334,
      "lng": -122.40355
    }
  ]
}