{
  "updated": "2026-06-25T18:37:39.640846+00:00",
  "listings": [
    {
      "source": "North Pacific Property Management",
      "beds": 2,
      "neighborhood": "Queen Anne",
      "address": "1965 12th Avenue West, Unit 302, Seattle, WA 98119",
      "rent": "$3,200",
      "pets": "none",
      "url": "https://northpacificpm.appfolio.com/listings/detail/3eb47b88-f0fd-4e5e-b3c1-72effc522d2d",
      "first_seen": "2026-06-18T22:29:53.905307+00:00",
      "lat": 47.6380624,
      "lng": -122.3731097
    },
    {
      "source": "North Pacific Property Management",
      "beds": 3,
      "neighborhood": "Ballard",
      "address": "1741 NW 58th St, Unit A, Seattle, WA 98107",
      "rent": "$3,900",
      "pets": "none",
      "url": "https://northpacificpm.appfolio.com/listings/detail/ebb810c9-524a-49d6-bf5f-12482f742ed5",
      "first_seen": "2026-06-18T22:29:53.905307+00:00",
      "lat": 47.670633,
      "lng": -122.3807919
    },
    {
      "source": "Ballard Realty",
      "beds": 2,
      "neighborhood": "Ballard",
      "address": "1737 NW 64th Street, Seattle, WA 98107",
      "rent": "$3,995",
      "pets": "none",
      "url": "https://ballardpm.appfolio.com/listings/detail/12747736-01d0-408a-9573-469ef38edf3e",
      "first_seen": "2026-06-24T04:06:24.804623+00:00",
      "lat": 47.6750564,
      "lng": -122.3805365
    },
    {
      "source": "Ballard Realty",
      "beds": 2,
      "neighborhood": "Ballard",
      "address": "3215 NW 61st, Seattle, WA 98107",
      "rent": "$3,860",
      "pets": "allowed",
      "url": "https://ballardpm.appfolio.com/listings/detail/cbb8388f-5e09-4db4-ba74-ef41ab17d555",
      "first_seen": "2026-06-23T21:46:22.430604+00:00",
      "lat": 47.6727696,
      "lng": -122.398893
    },
    {
      "source": "Ballard Realty",
      "beds": 2,
      "neighborhood": "Ballard",
      "address": "5440 Leary Ave NW #618, Seattle, WA 98107",
      "rent": "$3,400",
      "pets": "none",
      "url": "https://ballardpm.appfolio.com/listings/detail/b309c876-cbd2-4132-9b92-4b4446ed77ad",
      "first_seen": "2026-06-19T17:50:56.902044+00:00",
      "lat": 47.6674905,
      "lng": -122.3829403
    },
    {
      "source": "Ballard Realty",
      "beds": 3,
      "neighborhood": "Ballard",
      "address": "6251 8th Ave NW, Seattle, WA 98107",
      "rent": "$3,475",
      "pets": "allowed",
      "url": "https://ballardpm.appfolio.com/listings/detail/977b0d9f-9f4b-42c6-9fa4-ee09d64c2843",
      "first_seen": "2026-06-18T22:29:53.905307+00:00",
      "lat": 47.6744253,
      "lng": -122.3663623
    },
    {
      "source": "Ballard Realty",
      "beds": 3,
      "neighborhood": "Ballard",
      "address": "6116 22nd Ave NW #3, Seattle, WA 98107",
      "rent": "$3,695",
      "pets": "none",
      "url": "https://ballardpm.appfolio.com/listings/detail/1cf5ff05-b53b-420e-9421-1bc7061284b6",
      "first_seen": "2026-06-19T00:16:56.335337+00:00",
      "lat": 47.673675,
      "lng": -122.384407
    },
    {
      "source": "SJA Property Management",
      "beds": 2,
      "neighborhood": "Wallingford",
      "address": "346 NE 55th Street, Unit C , Seattle, WA 98105",
      "rent": "$3,950",
      "pets": "allowed",
      "url": "https://sja.appfolio.com/listings/detail/fba88a23-7d02-459e-ac65-e9439ae1f231",
      "first_seen": "2026-06-19T03:26:55.815872+00:00",
      "lat": 47.6688445,
      "lng": -122.3235324
    },
    {
      "source": "SJA Property Management",
      "beds": 3,
      "neighborhood": "Fremont",
      "address": "944 N 97th Street, Seattle, WA 98103",
      "rent": "$3,250",
      "pets": "allowed",
      "url": "https://sja.appfolio.com/listings/detail/31b89625-4b8d-4066-b060-646093ac14cb",
      "first_seen": "2026-06-19T17:50:56.902044+00:00",
      "lat": 47.6997057,
      "lng": -122.3466536
    },
    {
      "source": "SJA Property Management",
      "beds": 3,
      "neighborhood": "Ballard",
      "address": "2645 B NW 57th St, Seattle, WA 98107",
      "rent": "$3,495",
      "pets": "allowed",
      "url": "https://sja.appfolio.com/listings/detail/562c4f0d-1049-4c79-b31f-1e5e4d300a0b",
      "first_seen": "2026-06-18T22:29:53.905307+00:00",
      "lat": 47.6701863,
      "lng": -122.3858619
    },
    {
      "source": "SJA Property Management",
      "beds": 3,
      "neighborhood": "Ballard",
      "address": "824 NW 63rd St Unit B, Seattle, WA 98107",
      "rent": "$3,795",
      "pets": "allowed",
      "url": "https://sja.appfolio.com/listings/detail/f000947c-4dac-4e44-ae5e-2db0ce57cff7",
      "first_seen": "2026-06-19T17:50:56.902044+00:00",
      "lat": 47.6747108,
      "lng": -122.367099
    },
    {
      "source": "Avenue One Residential",
      "beds": 2,
      "neighborhood": "Queen Anne",
      "address": "712 C W Bertona St, Seattle, WA 98119",
      "rent": "$3,600",
      "pets": "none",
      "url": "https://avenueone.appfolio.com/listings/detail/f0fb6eb5-2068-410c-afad-a01ab959d3a8",
      "first_seen": "2026-06-24T21:27:56.480745+00:00",
      "lat": 47.6504595,
      "lng": -122.3595887
    },
    {
      "source": "Avenue One Residential",
      "beds": 3,
      "neighborhood": "Green Lake",
      "address": "3807 NE 70th St, Seattle, WA 98115",
      "rent": "$4,750",
      "pets": "allowed",
      "url": "https://avenueone.appfolio.com/listings/detail/d3d19f6d-4eed-42c5-844d-c1cf601cb518",
      "first_seen": "2026-06-23T18:29:46.636223+00:00",
      "lat": 47.6792421,
      "lng": -122.2867362
    },
    {
      "source": "Avenue One Residential",
      "beds": 2,
      "neighborhood": "Fremont",
      "address": "1122 N 92nd St Unit B, Seattle, WA 98103",
      "rent": "$3,050",
      "pets": "allowed",
      "url": "https://avenueone.appfolio.com/listings/detail/52ce02d7-6786-403b-821b-1308d1a00959",
      "first_seen": "2026-06-22T16:10:20.681015+00:00",
      "lat": 47.6958977,
      "lng": -122.3435186
    },
    {
      "source": "Avenue One Residential",
      "beds": 3,
      "neighborhood": "Queen Anne",
      "address": "2567-2569 13th Ave W - 2567.5, Seattle, WA 98119",
      "rent": "$4,495",
      "pets": "allowed",
      "url": "https://avenueone.appfolio.com/listings/detail/ba2739a1-c088-4f1b-91b1-9835409037ea",
      "first_seen": "2026-06-19T05:20:05.305996+00:00",
      "lat": 47.6374,
      "lng": -122.3572
    },
    {
      "source": "Avenue One Residential",
      "beds": 3,
      "neighborhood": "Queen Anne",
      "address": "2551 1\u20442 13th Ave W, Seattle, WA 98119",
      "rent": "$3,395",
      "pets": "allowed",
      "url": "https://avenueone.appfolio.com/listings/detail/145e0cb9-df8e-4659-8b15-12c8ea6290cb",
      "first_seen": "2026-06-19T03:26:55.815872+00:00",
      "lat": 47.6422247,
      "lng": -122.3739982
    },
    {
      "source": "Real Property Associates",
      "beds": 3,
      "neighborhood": "Ballard",
      "address": "2007 NW 63rd St, Unit A, Seattle, WA 98107",
      "rent": "$4,250",
      "pets": "allowed",
      "url": "https://rpa.appfolio.com/listings/detail/1899bdd4-3adf-40d8-8e6a-ea61b8b2cbc8",
      "first_seen": "2026-06-22T21:58:35.428462+00:00",
      "lat": 47.6742845,
      "lng": -122.3826764
    },
    {
      "source": "Seattle Rental Group",
      "beds": 3,
      "neighborhood": "Fremont",
      "address": "3814 Interlake Ave N Unit B , Seattle, WA 98103",
      "rent": "$3,760",
      "pets": "allowed",
      "url": "https://gpsrenting.appfolio.com/listings/detail/d510f311-dd4b-48b3-b3b3-ff0169b2c9c8",
      "first_seen": "2026-06-19T17:50:56.902044+00:00",
      "lat": 47.6531928,
      "lng": -122.3408685
    },
    {
      "source": "Lori Gill & Associates (Windermere)",
      "beds": 3,
      "neighborhood": "Ballard",
      "address": "1535 NW 58th Street, Seattle, WA 98107",
      "rent": "$4,500",
      "pets": "allowed",
      "url": "https://wpmnorthwest.appfolio.com/listings/detail/6b578066-237d-485e-a5c3-938aa1250d05",
      "first_seen": "2026-06-23T18:04:51.435052+00:00",
      "lat": 47.670586,
      "lng": -122.3777515
    },
    {
      "source": "Lori Gill & Associates (Windermere)",
      "beds": 2,
      "neighborhood": "Ballard",
      "address": "2213 NW 60th St, Seattle, WA 98107",
      "rent": "$3,300",
      "pets": "none",
      "url": "https://wpmnorthwest.appfolio.com/listings/detail/c53bfad3-96f3-4c53-bf3e-05907b55fc51",
      "first_seen": "2026-06-19T17:50:56.902044+00:00",
      "lat": 47.6722194,
      "lng": -122.3853362
    },
    {
      "source": "Lori Gill & Associates (Windermere)",
      "beds": 3,
      "neighborhood": "Fremont",
      "address": "3615 Albion Place N #A, Seattle, WA 98103",
      "rent": "$4,295",
      "pets": "none",
      "url": "https://wpmnorthwest.appfolio.com/listings/detail/4ec8f126-4ff5-44f2-9a54-4648eddc9141",
      "first_seen": "2026-06-19T17:50:56.902044+00:00",
      "lat": 47.6511061,
      "lng": -122.3451282
    },
    {
      "source": "Dwellings Seattle",
      "beds": 2,
      "neighborhood": "Queen Anne",
      "address": "315 W Galer St, unit 102, Seattle, WA 98119",
      "rent": "$6,195",
      "pets": "allowed",
      "url": "https://yourseattlehometeam.appfolio.com/listings/detail/cc78c5d5-d4e8-42cb-941a-ae0192d4f500",
      "first_seen": "2026-06-24T22:53:22.098618+00:00",
      "lat": 47.6321699,
      "lng": -122.3611717
    },
    {
      "source": "Pacific Crest Real Estate",
      "beds": 2,
      "neighborhood": "Queen Anne",
      "address": "201 Queen Anne Ave unit #507, Seattle, WA 98109",
      "rent": "$4,995",
      "pets": "unknown",
      "url": "https://pacificcrest.appfolio.com/listings/detail/497b558f-5a29-4693-821b-487e2a074f1a",
      "first_seen": "2026-06-23T07:55:09.295298+00:00",
      "lat": 47.6374,
      "lng": -122.3572
    },
    {
      "source": "Pacific Crest Real Estate",
      "beds": 2,
      "neighborhood": "Queen Anne",
      "address": "201 Queen Anne Ave unit #505, Seattle, WA 98109",
      "rent": "$4,495",
      "pets": "unknown",
      "url": "https://pacificcrest.appfolio.com/listings/detail/87502833-e53f-425b-ae1d-6a96df52ee71",
      "first_seen": "2026-06-23T07:55:09.295298+00:00",
      "lat": 47.6374,
      "lng": -122.3572
    },
    {
      "source": "Pacific Crest Real Estate",
      "beds": 2,
      "neighborhood": "Queen Anne",
      "address": "201 Queen Anne Ave unit #502, Seattle, WA 98109",
      "rent": "$4,450",
      "pets": "unknown",
      "url": "https://pacificcrest.appfolio.com/listings/detail/f35f20e0-1624-4ba5-a708-6252a96fd784",
      "first_seen": "2026-06-23T07:55:09.295298+00:00",
      "lat": 47.6374,
      "lng": -122.3572
    },
    {
      "source": "Pacific Crest Real Estate",
      "beds": 2,
      "neighborhood": "Queen Anne",
      "address": "201 Queen Anne Ave unit #414, Seattle, WA 98109",
      "rent": "$4,495",
      "pets": "unknown",
      "url": "https://pacificcrest.appfolio.com/listings/detail/25e1902c-f481-4fe5-a284-ed670bb0d1c6",
      "first_seen": "2026-06-23T07:55:09.295298+00:00",
      "lat": 47.6374,
      "lng": -122.3572
    },
    {
      "source": "Pacific Crest Real Estate",
      "beds": 2,
      "neighborhood": "Queen Anne",
      "address": "201 Queen Anne Ave unit #410, Seattle, WA 98109",
      "rent": "$4,325",
      "pets": "unknown",
      "url": "https://pacificcrest.appfolio.com/listings/detail/a5616392-1c5d-49fa-8706-83d9f90f6c73",
      "first_seen": "2026-06-23T07:55:09.295298+00:00",
      "lat": 47.6374,
      "lng": -122.3572
    },
    {
      "source": "Pacific Crest Real Estate",
      "beds": 2,
      "neighborhood": "Queen Anne",
      "address": "201 Queen Anne Ave unit #406, Seattle, WA 98109",
      "rent": "$4,495",
      "pets": "unknown",
      "url": "https://pacificcrest.appfolio.com/listings/detail/5beda5fb-7a51-4126-ae6e-8503b2a170b3",
      "first_seen": "2026-06-23T07:55:09.295298+00:00",
      "lat": 47.6374,
      "lng": -122.3572
    },
    {
      "source": "Pacific Crest Real Estate",
      "beds": 2,
      "neighborhood": "Queen Anne",
      "address": "201 Queen Anne Ave unit #402, Seattle, WA 98109",
      "rent": "$4,075",
      "pets": "unknown",
      "url": "https://pacificcrest.appfolio.com/listings/detail/02030b4a-fd28-4631-bb6f-590d2c039b34",
      "first_seen": "2026-06-23T07:55:09.295298+00:00",
      "lat": 47.6374,
      "lng": -122.3572
    },
    {
      "source": "Pacific Crest Real Estate",
      "beds": 2,
      "neighborhood": "Queen Anne",
      "address": "201 Queen Anne Ave unit #314, Seattle, WA 98109",
      "rent": "$4,550",
      "pets": "unknown",
      "url": "https://pacificcrest.appfolio.com/listings/detail/b9da90b8-8738-4d35-8a5d-99c98a61c4ad",
      "first_seen": "2026-06-23T07:55:09.295298+00:00",
      "lat": 47.6374,
      "lng": -122.3572
    },
    {
      "source": "Pacific Crest Real Estate",
      "beds": 2,
      "neighborhood": "Queen Anne",
      "address": "201 Queen Anne Ave unit #310, Seattle, WA 98109",
      "rent": "$4,395",
      "pets": "unknown",
      "url": "https://pacificcrest.appfolio.com/listings/detail/04c979af-9331-406d-954f-f29f962777de",
      "first_seen": "2026-06-23T07:55:09.295298+00:00",
      "lat": 47.6374,
      "lng": -122.3572
    },
    {
      "source": "Pacific Crest Real Estate",
      "beds": 2,
      "neighborhood": "Queen Anne",
      "address": "201 Queen Anne Ave unit #306, Seattle, WA 98109",
      "rent": "$4,350",
      "pets": "unknown",
      "url": "https://pacificcrest.appfolio.com/listings/detail/c5c6266d-248d-43f9-87af-6b49ea35cd1b",
      "first_seen": "2026-06-23T07:55:09.295298+00:00",
      "lat": 47.6374,
      "lng": -122.3572
    },
    {
      "source": "Pacific Crest Real Estate",
      "beds": 2,
      "neighborhood": "Queen Anne",
      "address": "201 Queen Anne Ave unit #302, Seattle, WA 98109",
      "rent": "$3,995",
      "pets": "unknown",
      "url": "https://pacificcrest.appfolio.com/listings/detail/8663fe02-bb44-475c-ae97-bfe8f6f06e8a",
      "first_seen": "2026-06-23T07:55:09.295298+00:00",
      "lat": 47.6374,
      "lng": -122.3572
    },
    {
      "source": "Pacific Crest Real Estate",
      "beds": 2,
      "neighborhood": "Queen Anne",
      "address": "201 Queen Anne Ave unit #214, Seattle, WA 98109",
      "rent": "$4,395",
      "pets": "unknown",
      "url": "https://pacificcrest.appfolio.com/listings/detail/10c79fbb-6cf8-4efb-9501-09a47042e53b",
      "first_seen": "2026-06-23T07:55:09.295298+00:00",
      "lat": 47.6374,
      "lng": -122.3572
    },
    {
      "source": "Pacific Crest Real Estate",
      "beds": 2,
      "neighborhood": "Queen Anne",
      "address": "201 Queen Anne Ave unit #210, Seattle, WA 98109",
      "rent": "$4,295",
      "pets": "unknown",
      "url": "https://pacificcrest.appfolio.com/listings/detail/1b4fab40-999e-435f-9022-995ba559b5f1",
      "first_seen": "2026-06-23T07:55:09.295298+00:00",
      "lat": 47.6374,
      "lng": -122.3572
    },
    {
      "source": "Pacific Crest Real Estate",
      "beds": 2,
      "neighborhood": "Queen Anne",
      "address": "201 Queen Anne Ave unit #206, Seattle, WA 98109",
      "rent": "$4,150",
      "pets": "unknown",
      "url": "https://pacificcrest.appfolio.com/listings/detail/3a4e4aa5-ea22-41cb-877c-520e10b58caf",
      "first_seen": "2026-06-23T07:55:09.295298+00:00",
      "lat": 47.6374,
      "lng": -122.3572
    },
    {
      "source": "Pacific Crest Real Estate",
      "beds": 2,
      "neighborhood": "Queen Anne",
      "address": "201 Queen Anne Ave unit #202, Seattle, WA 98109",
      "rent": "$3,795",
      "pets": "unknown",
      "url": "https://pacificcrest.appfolio.com/listings/detail/7c2b77aa-d51f-48d9-8c28-388f89db9ea8",
      "first_seen": "2026-06-23T07:55:09.295298+00:00",
      "lat": 47.6374,
      "lng": -122.3572
    },
    {
      "source": "Pacific Crest Real Estate",
      "beds": 2,
      "neighborhood": "Queen Anne",
      "address": "201 Queen Anne Ave unit #114, Seattle, WA 98109",
      "rent": "$4,195",
      "pets": "unknown",
      "url": "https://pacificcrest.appfolio.com/listings/detail/8840f7d1-e376-4c41-a875-385a82583e3e",
      "first_seen": "2026-06-23T07:55:09.295298+00:00",
      "lat": 47.6374,
      "lng": -122.3572
    },
    {
      "source": "Pacific Crest Real Estate",
      "beds": 2,
      "neighborhood": "Queen Anne",
      "address": "201 Queen Anne Ave unit #110, Seattle, WA 98109",
      "rent": "$4,095",
      "pets": "unknown",
      "url": "https://pacificcrest.appfolio.com/listings/detail/7a5ed6db-aa6b-43cf-b893-d84bc1c05474",
      "first_seen": "2026-06-23T07:55:09.295298+00:00",
      "lat": 47.6374,
      "lng": -122.3572
    },
    {
      "source": "Pacific Crest Real Estate",
      "beds": 2,
      "neighborhood": "Queen Anne",
      "address": "201 Queen Anne Ave unit #102, Seattle, WA 98109",
      "rent": "$3,850",
      "pets": "unknown",
      "url": "https://pacificcrest.appfolio.com/listings/detail/60d3a43c-220e-4606-be0f-5140a16d4555",
      "first_seen": "2026-06-23T07:55:09.295298+00:00",
      "lat": 47.6374,
      "lng": -122.3572
    },
    {
      "source": "Pacific Crest Real Estate",
      "beds": 3,
      "neighborhood": "Queen Anne",
      "address": "1213 6th Ave N #B, Seattle, WA 98109",
      "rent": "$3,995",
      "pets": "allowed",
      "url": "https://pacificcrest.appfolio.com/listings/detail/6911b029-8f87-4754-9375-0b48ac056315",
      "first_seen": "2026-06-23T07:55:09.295298+00:00",
      "lat": 47.630216,
      "lng": -122.3452947
    },
    {
      "source": "Pacific Crest Real Estate",
      "beds": 2,
      "neighborhood": "Queen Anne",
      "address": "101 John St #304, Seattle, WA 98109",
      "rent": "$3,195",
      "pets": "allowed",
      "url": "https://pacificcrest.appfolio.com/listings/detail/94e50908-d0c6-4732-83aa-a08352055f2b",
      "first_seen": "2026-06-23T07:55:09.295298+00:00",
      "lat": 47.6196636,
      "lng": -122.3552156
    }
  ]
}