{
  "updated": "2026-06-21T13:22:38.911229+00:00",
  "listings": [
    {
      "source": "North Pacific Property Management",
      "beds": 2,
      "neighborhood": "Queen Anne",
      "address": "1965 12th Avenue West, Unit 302, Seattle, WA 98119",
      "rent": "$3,495",
      "pets": "none",
      "url": "https://northpacificpm.appfolio.com/listings/detail/3eb47b88-f0fd-4e5e-b3c1-72effc522d2d",
      "first_seen": "2026-06-18T22:29:53.905307+00:00",
      "lat": 47.6380624,
      "lng": -122.3731097
    },
    {
      "source": "North Pacific Property Management",
      "beds": 3,
      "neighborhood": "Ballard",
      "address": "1741 NW 58th St, Unit A, Seattle, WA 98107",
      "rent": "$3,900",
      "pets": "none",
      "url": "https://northpacificpm.appfolio.com/listings/detail/ebb810c9-524a-49d6-bf5f-12482f742ed5",
      "first_seen": "2026-06-18T22:29:53.905307+00:00",
      "lat": 47.670633,
      "lng": -122.3807919
    },
    {
      "source": "Ballard Realty",
      "beds": 2,
      "neighborhood": "Ballard",
      "address": "5440 Leary Ave NW #618, Seattle, WA 98107",
      "rent": "$3,400",
      "pets": "none",
      "url": "https://ballardpm.appfolio.com/listings/detail/b309c876-cbd2-4132-9b92-4b4446ed77ad",
      "first_seen": "2026-06-19T17:50:56.902044+00:00",
      "lat": 47.6674905,
      "lng": -122.3829403
    },
    {
      "source": "Ballard Realty",
      "beds": 3,
      "neighborhood": "Ballard",
      "address": "6251 8th Ave NW, Seattle, WA 98107",
      "rent": "$3,475",
      "pets": "allowed",
      "url": "https://ballardpm.appfolio.com/listings/detail/977b0d9f-9f4b-42c6-9fa4-ee09d64c2843",
      "first_seen": "2026-06-18T22:29:53.905307+00:00",
      "lat": 47.6744253,
      "lng": -122.3663623
    },
    {
      "source": "Ballard Realty",
      "beds": 3,
      "neighborhood": "Ballard",
      "address": "6116 22nd Ave NW #3, Seattle, WA 98107",
      "rent": "$3,695",
      "pets": "none",
      "url": "https://ballardpm.appfolio.com/listings/detail/1cf5ff05-b53b-420e-9421-1bc7061284b6",
      "first_seen": "2026-06-19T00:16:56.335337+00:00",
      "lat": 47.673675,
      "lng": -122.384407
    },
    {
      "source": "SJA Property Management",
      "beds": 2,
      "neighborhood": "Wallingford",
      "address": "346 NE 55th Street, Unit C , Seattle, WA 98105",
      "rent": "$3,950",
      "pets": "allowed",
      "url": "https://sja.appfolio.com/listings/detail/fba88a23-7d02-459e-ac65-e9439ae1f231",
      "first_seen": "2026-06-19T03:26:55.815872+00:00",
      "lat": 47.6688445,
      "lng": -122.3235324
    },
    {
      "source": "SJA Property Management",
      "beds": 3,
      "neighborhood": "Fremont",
      "address": "944 N 97th Street, Seattle, WA 98103",
      "rent": "$3,250",
      "pets": "allowed",
      "url": "https://sja.appfolio.com/listings/detail/31b89625-4b8d-4066-b060-646093ac14cb",
      "first_seen": "2026-06-19T17:50:56.902044+00:00",
      "lat": 47.6997077,
      "lng": -122.3466518
    },
    {
      "source": "SJA Property Management",
      "beds": 2,
      "neighborhood": "Green Lake",
      "address": "549 NE 89th Street, Seattle, WA 98115",
      "rent": "$3,200",
      "pets": "allowed",
      "url": "https://sja.appfolio.com/listings/detail/ec12f016-3d87-4583-9ef1-9f6ace4086d4",
      "first_seen": "2026-06-19T17:50:56.902044+00:00",
      "lat": 47.6929533,
      "lng": -122.3209571
    },
    {
      "source": "SJA Property Management",
      "beds": 3,
      "neighborhood": "Ballard",
      "address": "2645 B NW 57th St, Seattle, WA 98107",
      "rent": "$3,495",
      "pets": "none",
      "url": "https://sja.appfolio.com/listings/detail/562c4f0d-1049-4c79-b31f-1e5e4d300a0b",
      "first_seen": "2026-06-18T22:29:53.905307+00:00",
      "lat": 47.6701863,
      "lng": -122.3858619
    },
    {
      "source": "SJA Property Management",
      "beds": 2,
      "neighborhood": "Green Lake",
      "address": "9519 B 5th Ave NE, Seattle, WA 98115",
      "rent": "$3,695",
      "pets": "allowed",
      "url": "https://sja.appfolio.com/listings/detail/a333a898-a3b5-4323-a329-94015f79c63d",
      "first_seen": "2026-06-19T17:50:56.902044+00:00",
      "lat": 47.6567623,
      "lng": -122.3235059
    },
    {
      "source": "SJA Property Management",
      "beds": 3,
      "neighborhood": "Ballard",
      "address": "824 NW 63rd St Unit B, Seattle, WA 98107",
      "rent": "$3,795",
      "pets": "none",
      "url": "https://sja.appfolio.com/listings/detail/f000947c-4dac-4e44-ae5e-2db0ce57cff7",
      "first_seen": "2026-06-19T17:50:56.902044+00:00",
      "lat": 47.6747106,
      "lng": -122.3670507
    },
    {
      "source": "Avenue One Residential",
      "beds": 3,
      "neighborhood": "Queen Anne",
      "address": "2567-2569 13th Ave W - 2567.5, Seattle, WA 98119",
      "rent": "$4,495",
      "pets": "allowed",
      "url": "https://avenueone.appfolio.com/listings/detail/ba2739a1-c088-4f1b-91b1-9835409037ea",
      "first_seen": "2026-06-19T05:20:05.305996+00:00",
      "lat": 47.6374,
      "lng": -122.3572
    },
    {
      "source": "Avenue One Residential",
      "beds": 3,
      "neighborhood": "Queen Anne",
      "address": "2551 1\u20442 13th Ave W, Seattle, WA 98119",
      "rent": "$3,395",
      "pets": "allowed",
      "url": "https://avenueone.appfolio.com/listings/detail/145e0cb9-df8e-4659-8b15-12c8ea6290cb",
      "first_seen": "2026-06-19T03:26:55.815872+00:00",
      "lat": 47.6422247,
      "lng": -122.3739982
    },
    {
      "source": "Avenue One Residential",
      "beds": 3,
      "neighborhood": "Fremont",
      "address": "4304 Whitman Ave. N. , Seattle, WA 98103",
      "rent": "$4,195",
      "pets": "allowed",
      "url": "https://avenueone.appfolio.com/listings/detail/5a86f3e7-b909-4a40-a1be-0b40659d3bb2",
      "first_seen": "2026-06-19T03:26:55.815872+00:00",
      "lat": 47.6597637,
      "lng": -122.345439
    },
    {
      "source": "Seattle Rental Group",
      "beds": 3,
      "neighborhood": "Fremont",
      "address": "3814 Interlake Ave N Unit B , Seattle, WA 98103",
      "rent": "$3,760",
      "pets": "allowed",
      "url": "https://gpsrenting.appfolio.com/listings/detail/d510f311-dd4b-48b3-b3b3-ff0169b2c9c8",
      "first_seen": "2026-06-19T17:50:56.902044+00:00",
      "lat": 47.6531928,
      "lng": -122.3408685
    },
    {
      "source": "Lori Gill & Associates (Windermere)",
      "beds": 3,
      "neighborhood": "Green Lake",
      "address": "6546B 32nd Avenue NE, Seattle, WA 98115",
      "rent": "$4,495",
      "pets": "none",
      "url": "https://wpmnorthwest.appfolio.com/listings/detail/cb9ede20-c3ce-4386-a538-a5944d6cc371",
      "first_seen": "2026-06-20T01:29:25.807804+00:00",
      "lat": 47.7157411,
      "lng": -122.2940574
    },
    {
      "source": "Lori Gill & Associates (Windermere)",
      "beds": 2,
      "neighborhood": "Ballard",
      "address": "2213 NW 60th St, Seattle, WA 98107",
      "rent": "$3,300",
      "pets": "none",
      "url": "https://wpmnorthwest.appfolio.com/listings/detail/c53bfad3-96f3-4c53-bf3e-05907b55fc51",
      "first_seen": "2026-06-19T17:50:56.902044+00:00",
      "lat": 47.6722194,
      "lng": -122.3853362
    },
    {
      "source": "Lori Gill & Associates (Windermere)",
      "beds": 3,
      "neighborhood": "Fremont",
      "address": "3615 Albion Place N #A, Seattle, WA 98103",
      "rent": "$4,295",
      "pets": "none",
      "url": "https://wpmnorthwest.appfolio.com/listings/detail/4ec8f126-4ff5-44f2-9a54-4648eddc9141",
      "first_seen": "2026-06-19T17:50:56.902044+00:00",
      "lat": 47.6512028,
      "lng": -122.3451345
    }
  ]
}