{
  "updated": "2026-06-19T12:29:40.952904+00:00",
  "listings": [
    {
      "source": "Walls Property Management",
      "beds": 2,
      "neighborhood": "Ballard",
      "address": "1819 NW Central Place 2-202, Seattle, WA 98107",
      "rent": "$2,695",
      "pets": "allowed",
      "url": "https://wallspropertymanagement.com/vacancies",
      "first_seen": "2026-06-19T08:18:55.043460+00:00",
      "lat": 47.6668248,
      "lng": -122.3805033
    },
    {
      "source": "Walls Property Management",
      "beds": 3,
      "neighborhood": "Fremont",
      "address": "4250 Fremont Ave N - C, Seattle, WA 98103",
      "rent": "$4,095",
      "pets": "unknown",
      "url": "https://wallspropertymanagement.com/vacancies",
      "first_seen": "2026-06-19T08:18:55.043460+00:00",
      "lat": 47.6587313,
      "lng": -122.349879
    },
    {
      "source": "Walls Property Management",
      "beds": 3,
      "neighborhood": "Green Lake",
      "address": "6840 Oswego Place NE - 306, Seattle, WA 98115",
      "rent": "$3,695",
      "pets": "allowed",
      "url": "https://wallspropertymanagement.com/vacancies",
      "first_seen": "2026-06-19T08:18:55.043460+00:00",
      "lat": 47.6789273,
      "lng": -122.3230642
    },
    {
      "source": "Walls Property Management",
      "beds": 3,
      "neighborhood": "Green Lake",
      "address": "6840 Oswego Place NE - 303, Seattle, WA 98115",
      "rent": "$3,395",
      "pets": "allowed",
      "url": "https://wallspropertymanagement.com/vacancies",
      "first_seen": "2026-06-19T08:18:55.043460+00:00",
      "lat": 47.6789273,
      "lng": -122.3230642
    },
    {
      "source": "Walls Property Management",
      "beds": 2,
      "neighborhood": "Ballard",
      "address": "2237 NW 59th - 7, Seattle, WA 98107",
      "rent": "$2,275",
      "pets": "allowed",
      "url": "https://wallspropertymanagement.com/vacancies",
      "first_seen": "2026-06-19T08:18:55.043460+00:00",
      "lat": 47.6714379,
      "lng": -122.3864192
    },
    {
      "source": "Walls Property Management",
      "beds": 3,
      "neighborhood": "Ballard",
      "address": "7522 24th Ave NW - 3, Seattle, WA 98117",
      "rent": "$3,395",
      "pets": "allowed",
      "url": "https://wallspropertymanagement.com/vacancies",
      "first_seen": "2026-06-19T08:18:55.043460+00:00",
      "lat": 47.6838608,
      "lng": -122.3872467
    },
    {
      "source": "Walls Property Management",
      "beds": 2,
      "neighborhood": "Queen Anne",
      "address": "655 Crockett St , #A308, Seattle, WA 98109",
      "rent": "$3,295",
      "pets": "allowed",
      "url": "https://wallspropertymanagement.com/vacancies",
      "first_seen": "2026-06-19T08:18:55.043460+00:00",
      "lat": 47.6370915,
      "lng": -122.3437999
    },
    {
      "source": "Walls Property Management",
      "beds": 2,
      "neighborhood": "Phinney Ridge",
      "address": "8524 Phinney Avenue N  - 7, Seattle, WA 98103",
      "rent": "$1,975",
      "pets": "allowed",
      "url": "https://wallspropertymanagement.com/vacancies",
      "first_seen": "2026-06-19T08:18:55.043460+00:00",
      "lat": 47.6914134,
      "lng": -122.3536136
    },
    {
      "source": "Walls Property Management",
      "beds": 3,
      "neighborhood": "Ballard",
      "address": "7522 24th Ave NW - 4, Seattle, WA 98117",
      "rent": "$3,395",
      "pets": "allowed",
      "url": "https://wallspropertymanagement.com/vacancies",
      "first_seen": "2026-06-19T08:18:55.043460+00:00",
      "lat": 47.6838608,
      "lng": -122.3872467
    },
    {
      "source": "Walls Property Management",
      "beds": 3,
      "neighborhood": "Ballard",
      "address": "5820 26th Ave NW, Seattle, WA 98107",
      "rent": "$2,563",
      "pets": "allowed",
      "url": "https://wallspropertymanagement.com/vacancies",
      "first_seen": "2026-06-19T08:18:55.043460+00:00",
      "lat": 47.6711414,
      "lng": -122.3899968
    },
    {
      "source": "Walls Property Management",
      "beds": 3,
      "neighborhood": "Phinney Ridge",
      "address": "8732 Phinney Avenue N - 201, Seattle, WA 98103",
      "rent": "$2,595",
      "pets": "allowed",
      "url": "https://wallspropertymanagement.com/vacancies",
      "first_seen": "2026-06-19T08:18:55.043460+00:00",
      "lat": 47.6933816,
      "lng": -122.3536247
    },
    {
      "source": "Walls Property Management",
      "beds": 2,
      "neighborhood": "Wallingford",
      "address": "4314 Winslow Pl N Apt 203, Seattle, WA 98103-7355",
      "rent": "$2,345",
      "pets": "unknown",
      "url": "https://wallspropertymanagement.com/vacancies",
      "first_seen": "2026-06-19T08:18:55.043460+00:00",
      "lat": 47.6600056,
      "lng": -122.3463578
    },
    {
      "source": "Walls Property Management",
      "beds": 3,
      "neighborhood": "Ballard",
      "address": "2237 NW 59th - 2, Seattle, WA 98107",
      "rent": "$2,895",
      "pets": "allowed",
      "url": "https://wallspropertymanagement.com/vacancies",
      "first_seen": "2026-06-19T08:18:55.043460+00:00",
      "lat": 47.6714379,
      "lng": -122.3864192
    },
    {
      "source": "Redside Partners",
      "beds": 2,
      "neighborhood": "Queen Anne",
      "address": "1700  Taylor Ave N #201, Seattle, WA 98109",
      "rent": "$2,195",
      "pets": "allowed",
      "url": "https://www.redsidepartners.com/managed-properties/",
      "first_seen": "2026-06-19T08:18:55.043460+00:00",
      "lat": 47.634352,
      "lng": -122.3462097
    },
    {
      "source": "Redside Partners",
      "beds": 2,
      "neighborhood": "Queen Anne",
      "address": "1212 5th Ave. N. - 102, Seattle, WA 98109",
      "rent": "$2,300",
      "pets": "allowed",
      "url": "https://www.redsidepartners.com/managed-properties/",
      "first_seen": "2026-06-19T08:18:55.043460+00:00",
      "lat": 47.6301888,
      "lng": -122.3472664
    },
    {
      "source": "Redside Partners",
      "beds": 2,
      "neighborhood": "Queen Anne",
      "address": "1212 5th Ave. N. - 2, Seattle, WA 98109",
      "rent": "$2,200",
      "pets": "allowed",
      "url": "https://www.redsidepartners.com/managed-properties/",
      "first_seen": "2026-06-19T08:18:55.043460+00:00",
      "lat": 47.6301888,
      "lng": -122.3472664
    },
    {
      "source": "Redside Partners",
      "beds": 2,
      "neighborhood": "Queen Anne",
      "address": "911 1st Ave W #201, Seattle, WA 98119",
      "rent": "$2,200",
      "pets": "allowed",
      "url": "https://www.redsidepartners.com/managed-properties/",
      "first_seen": "2026-06-19T08:18:55.043460+00:00",
      "lat": 47.62716,
      "lng": -122.3583127
    },
    {
      "source": "Redside Partners",
      "beds": 2,
      "neighborhood": "Ballard",
      "address": "9514 8th Ave NW , Unit 103, Seattle, WA 98117",
      "rent": "$2,250",
      "pets": "unknown",
      "url": "https://www.redsidepartners.com/managed-properties/",
      "first_seen": "2026-06-19T08:18:55.043460+00:00",
      "lat": 47.6983824,
      "lng": -122.3656665
    },
    {
      "source": "Cornell & Associates",
      "beds": 2,
      "neighborhood": "Ballard",
      "address": "1412 NW 61ST ST #8, Seattle, WA 98107",
      "rent": "$2,295",
      "pets": "allowed",
      "url": "https://cornellandassociates.appfolio.com/listings/detail/fc4ce247-73de-4f70-ae4a-0c9e678bb3cc",
      "first_seen": "2026-06-18T22:29:53.905307+00:00",
      "lat": 47.6733241,
      "lng": -122.3742895
    },
    {
      "source": "North Pacific Property Management",
      "beds": 2,
      "neighborhood": "Queen Anne",
      "address": "1965 12th Avenue West, Unit 302, Seattle, WA 98119",
      "rent": "$3,495",
      "pets": "none",
      "url": "https://northpacificpm.appfolio.com/listings/detail/3eb47b88-f0fd-4e5e-b3c1-72effc522d2d",
      "first_seen": "2026-06-18T22:29:53.905307+00:00",
      "lat": 47.6380624,
      "lng": -122.3731097
    },
    {
      "source": "North Pacific Property Management",
      "beds": 3,
      "neighborhood": "Ballard",
      "address": "1741 NW 58th St, Unit A, Seattle, WA 98107",
      "rent": "$3,900",
      "pets": "none",
      "url": "https://northpacificpm.appfolio.com/listings/detail/ebb810c9-524a-49d6-bf5f-12482f742ed5",
      "first_seen": "2026-06-18T22:29:53.905307+00:00",
      "lat": 47.6706332,
      "lng": -122.3807113
    },
    {
      "source": "North Pacific Property Management",
      "beds": 2,
      "neighborhood": "Queen Anne",
      "address": "822 6th Ave N  - Unit C, Unit C, Seattle, WA 98109",
      "rent": "$2,800",
      "pets": "unknown",
      "url": "https://northpacificpm.appfolio.com/listings/detail/798827ec-8c91-439f-8435-e02d4fa0815c",
      "first_seen": "2026-06-18T22:29:53.905307+00:00",
      "lat": 47.6374,
      "lng": -122.3572
    },
    {
      "source": "Ballard Realty",
      "beds": 2,
      "neighborhood": "Queen Anne",
      "address": "2244 13th Ave W #215, Seattle, WA 98119",
      "rent": "$2,400",
      "pets": "allowed",
      "url": "https://ballardpm.appfolio.com/listings/detail/f39aff76-ab5f-43cc-bfc6-87828838ec3b",
      "first_seen": "2026-06-18T22:29:53.905307+00:00",
      "lat": 47.6400535,
      "lng": -122.3733068
    },
    {
      "source": "Ballard Realty",
      "beds": 3,
      "neighborhood": "Ballard",
      "address": "6251 8th Ave NW, Seattle, WA 98107",
      "rent": "$3,475",
      "pets": "allowed",
      "url": "https://ballardpm.appfolio.com/listings/detail/977b0d9f-9f4b-42c6-9fa4-ee09d64c2843",
      "first_seen": "2026-06-18T22:29:53.905307+00:00",
      "lat": 47.6744253,
      "lng": -122.3663623
    },
    {
      "source": "Ballard Realty",
      "beds": 3,
      "neighborhood": "Ballard",
      "address": "6116 22nd Ave NW #3, Seattle, WA 98107",
      "rent": "$3,695",
      "pets": "none",
      "url": "https://ballardpm.appfolio.com/listings/detail/1cf5ff05-b53b-420e-9421-1bc7061284b6",
      "first_seen": "2026-06-19T00:16:56.335337+00:00",
      "lat": 47.673675,
      "lng": -122.384407
    },
    {
      "source": "Ballard Realty",
      "beds": 3,
      "neighborhood": "Fremont",
      "address": "469 N 36th St #B , Seattle, WA 98103",
      "rent": "$2,200",
      "pets": "allowed",
      "url": "https://ballardpm.appfolio.com/listings/detail/b8c5b1b8-3809-4210-bae5-71252d7b4e51",
      "first_seen": "2026-06-18T22:29:53.905307+00:00",
      "lat": 47.6516655,
      "lng": -122.3526101
    },
    {
      "source": "SJA Property Management",
      "beds": 2,
      "neighborhood": "Wallingford",
      "address": "346 NE 55th Street, Unit C , Seattle, WA 98105",
      "rent": "$3,950",
      "pets": "allowed",
      "url": "https://sja.appfolio.com/listings/detail/fba88a23-7d02-459e-ac65-e9439ae1f231",
      "first_seen": "2026-06-19T08:18:55.043460+00:00",
      "lat": 47.6688445,
      "lng": -122.3235324
    },
    {
      "source": "SJA Property Management",
      "beds": 3,
      "neighborhood": "Ballard",
      "address": "824 NW 63rd St , Unit A, Seattle, WA 98107",
      "rent": "$3,795",
      "pets": "allowed",
      "url": "https://sja.appfolio.com/listings/detail/f94658f1-eed9-4b71-a033-98ba7eb4b3c4",
      "first_seen": "2026-06-18T22:29:53.905307+00:00",
      "lat": 47.6747106,
      "lng": -122.3670507
    },
    {
      "source": "SJA Property Management",
      "beds": 3,
      "neighborhood": "Ballard",
      "address": "2645 B NW 57th St, Seattle, WA 98107",
      "rent": "$3,495",
      "pets": "none",
      "url": "https://sja.appfolio.com/listings/detail/562c4f0d-1049-4c79-b31f-1e5e4d300a0b",
      "first_seen": "2026-06-18T22:29:53.905307+00:00",
      "lat": 47.6701863,
      "lng": -122.3858619
    },
    {
      "source": "Avenue One Residential",
      "beds": 3,
      "neighborhood": "Queen Anne",
      "address": "2567-2569 13th Ave W - 2567.5, Seattle, WA 98119",
      "rent": "$4,495",
      "pets": "allowed",
      "url": "https://avenueone.appfolio.com/listings/detail/ba2739a1-c088-4f1b-91b1-9835409037ea",
      "first_seen": "2026-06-19T08:18:55.043460+00:00",
      "lat": 47.6374,
      "lng": -122.3572
    },
    {
      "source": "Avenue One Residential",
      "beds": 3,
      "neighborhood": "Queen Anne",
      "address": "2551 1\u20442 13th Ave W, Seattle, WA 98119",
      "rent": "$3,395",
      "pets": "allowed",
      "url": "https://avenueone.appfolio.com/listings/detail/145e0cb9-df8e-4659-8b15-12c8ea6290cb",
      "first_seen": "2026-06-19T08:18:55.043460+00:00",
      "lat": 47.6422247,
      "lng": -122.3739982
    },
    {
      "source": "Avenue One Residential",
      "beds": 3,
      "neighborhood": "Fremont",
      "address": "4304 Whitman Ave. N. , Seattle, WA 98103",
      "rent": "$4,195",
      "pets": "allowed",
      "url": "https://avenueone.appfolio.com/listings/detail/5a86f3e7-b909-4a40-a1be-0b40659d3bb2",
      "first_seen": "2026-06-19T08:18:55.043460+00:00",
      "lat": 47.6597637,
      "lng": -122.345439
    },
    {
      "source": "Real Property Associates",
      "beds": 2,
      "neighborhood": "Queen Anne",
      "address": "845 W Nickerson Street Unit 4, Seattle, WA 98119",
      "rent": "$2,195",
      "pets": "none",
      "url": "https://rpa.appfolio.com/listings/detail/60205009-e68e-4178-bc57-f58f9df8b9fc",
      "first_seen": "2026-06-19T08:18:55.043460+00:00",
      "lat": 47.6530956,
      "lng": -122.3692009
    },
    {
      "source": "Real Property Associates",
      "beds": 2,
      "neighborhood": "Queen Anne",
      "address": "1800 Taylor Ave N , Apt 10, Seattle, WA 98109",
      "rent": "$2,250",
      "pets": "none",
      "url": "https://rpa.appfolio.com/listings/detail/415b39b1-d728-4e94-8751-23c7a1fe6b5f",
      "first_seen": "2026-06-19T08:18:55.043460+00:00",
      "lat": 47.6353959,
      "lng": -122.3456202
    },
    {
      "source": "Real Property Associates",
      "beds": 2,
      "neighborhood": "Wallingford",
      "address": "4422 Latona Ave NE - Upper, Seattle, WA 98105",
      "rent": "$2,195",
      "pets": "none",
      "url": "https://rpa.appfolio.com/listings/detail/8f40ce5e-f47c-424a-919d-187b80cb21a4",
      "first_seen": "2026-06-19T08:18:55.043460+00:00",
      "lat": 47.6609291,
      "lng": -122.3248149
    }
  ]
}